[
  {"id": 1, "name": "북한산", "region_city": "서울특별시", "region_district": "강북구", "latitude": 37.6588, "longitude": 126.9778, "elevation_m": 836, "difficulty": "MODERATE", "aliases": ["북한산국립공원"], "match_dong": ["수유동", "미아동", "번동", "우이동", "삼각산"], "match_districts": ["강북구", "은평구", "종로구", "성북구"]},
  {"id": 2, "name": "도봉산", "region_city": "서울특별시", "region_district": "도봉구", "latitude": 37.7012, "longitude": 127.0156, "elevation_m": 740, "difficulty": "MODERATE", "aliases": [], "match_dong": ["도봉동", "방학동", "쌍문동"], "match_districts": ["도봉구", "노원구"]},
  {"id": 3, "name": "관악산", "region_city": "서울특별시", "region_district": "관악구", "latitude": 37.4447, "longitude": 126.9639, "elevation_m": 632, "difficulty": "EASY", "aliases": [], "match_dong": ["신림동", "봉천동", "낙성대동"], "match_districts": ["관악구", "금천구", "동작구"]},
  {"id": 4, "name": "수락산", "region_city": "서울특별시", "region_district": "노원구", "latitude": 37.6769, "longitude": 127.0553, "elevation_m": 637, "difficulty": "EASY", "aliases": [], "match_dong": ["상계동", "월계동", "공릉동"], "match_districts": ["노원구", "도봉구"]},
  {"id": 5, "name": "청계산", "region_city": "서울특별시", "region_district": "서초구", "latitude": 37.4289, "longitude": 127.0431, "elevation_m": 620, "difficulty": "MODERATE", "aliases": [], "match_dong": ["내곡동", "세곡동"], "match_districts": ["서초구", "성남시"]},
  {"id": 6, "name": "인왕산", "region_city": "서울특별시", "region_district": "종로구", "latitude": 37.5847, "longitude": 126.9592, "elevation_m": 338, "difficulty": "EASY", "aliases": [], "match_dong": ["홍제동", "무악동", "구기동"], "match_districts": ["종로구", "서대문구"]},
  {"id": 7, "name": "아차산", "region_city": "서울특별시", "region_district": "광진구", "latitude": 37.5531, "longitude": 127.1036, "elevation_m": 287, "difficulty": "EASY", "aliases": [], "match_dong": ["중곡동", "구의동"], "match_districts": ["광진구", "중랑구"]},
  {"id": 8, "name": "안산", "region_city": "서울특별시", "region_district": "서대문구", "latitude": 37.5722, "longitude": 126.9456, "elevation_m": 295, "difficulty": "EASY", "aliases": ["안산자연공원"], "match_dong": ["봉원동", "홍은동"], "match_districts": ["서대문구", "은평구"]},
  {"id": 9, "name": "북악산", "region_city": "서울특별시", "region_district": "종로구", "latitude": 37.5928, "longitude": 126.9811, "elevation_m": 342, "difficulty": "EASY", "aliases": [], "match_dong": ["삼청동", "가회동"], "match_districts": ["종로구"]},
  {"id": 10, "name": "남산", "region_city": "서울특별시", "region_district": "중구", "latitude": 37.5512, "longitude": 126.9882, "elevation_m": 262, "difficulty": "EASY", "aliases": ["남산공원"], "match_dong": ["예장동", "장충동"], "match_districts": ["중구", "용산구"]},
  {"id": 11, "name": "지리산", "region_city": "전라남도", "region_district": "구례군", "latitude": 35.3367, "longitude": 127.7303, "elevation_m": 1915, "difficulty": "EXPERT", "aliases": ["지리산국립공원"], "match_dong": ["마천면", "토지면", "산동면"], "match_districts": ["구례군", "하동군", "함양군", "남원시", "장수군"]},
  {"id": 12, "name": "한라산", "region_city": "제주특별자치도", "region_district": "제주시", "latitude": 33.3617, "longitude": 126.5292, "elevation_m": 1947, "difficulty": "HARD", "aliases": ["한라산국립공원"], "match_dong": ["해안동", "조천읍", "애월읍", "대정읍", "남원읍", "성산읍"], "match_districts": ["제주시", "서귀포시"]},
  {"id": 13, "name": "설악산", "region_city": "강원특별자치도", "region_district": "속초시", "latitude": 38.1195, "longitude": 128.4653, "elevation_m": 1708, "difficulty": "HARD", "aliases": ["설악산국립공원"], "match_dong": ["설악동", "조양동"], "match_districts": ["속초시", "인제군", "양양군", "고성군"]},
  {"id": 14, "name": "덕유산", "region_city": "전북특별자치도", "region_district": "무주군", "latitude": 35.8578, "longitude": 127.7467, "elevation_m": 1614, "difficulty": "HARD", "aliases": ["덕유산국립공원"], "match_dong": ["적상면", "무풍면", "안성면"], "match_districts": ["무주군", "김천시", "구례군"]},
  {"id": 15, "name": "월악산", "region_city": "충청북도", "region_district": "단양군", "latitude": 36.9267, "longitude": 128.0833, "elevation_m": 1094, "difficulty": "MODERATE", "aliases": ["월악산국립공원"], "match_dong": ["단성면", "매포읍"], "match_districts": ["단양군", "제천시", "보은군"]},
  {"id": 16, "name": "속리산", "region_city": "충청북도", "region_district": "보은군", "latitude": 36.5433, "longitude": 127.8722, "elevation_m": 1058, "difficulty": "MODERATE", "aliases": ["속리산국립공원"], "match_dong": ["속리산면", "남이면"], "match_districts": ["보은군", "청주시"]},
  {"id": 17, "name": "치악산", "region_city": "강원특별자치도", "region_district": "원주시", "latitude": 37.3803, "longitude": 128.0833, "elevation_m": 1288, "difficulty": "MODERATE", "aliases": ["치악산국립공원"], "match_dong": ["소초면", "지정면"], "match_districts": ["원주시", "횡성군"]},
  {"id": 18, "name": "태백산", "region_city": "강원특별자치도", "region_district": "태백시", "latitude": 37.0956, "longitude": 129.0556, "elevation_m": 1567, "difficulty": "HARD", "aliases": ["태백산국립공원"], "match_dong": ["황지동", "문곡동"], "match_districts": ["태백시", "삼척시", "정선군"]},
  {"id": 19, "name": "오대산", "region_city": "강원특별자치도", "region_district": "평창군", "latitude": 37.7956, "longitude": 128.5433, "elevation_m": 1563, "difficulty": "HARD", "aliases": ["오대산국립공원"], "match_dong": ["진부면", "대관령면"], "match_districts": ["평창군", "홍천군"]},
  {"id": 20, "name": "소백산", "region_city": "충청북도", "region_district": "영동군", "latitude": 36.9567, "longitude": 128.4667, "elevation_m": 1439, "difficulty": "HARD", "aliases": ["소백산국립공원"], "match_dong": ["민주지산면", "상촌면"], "match_districts": ["영동군", "충주시"]},
  {"id": 21, "name": "가야산", "region_city": "경상남도", "region_district": "합천군", "latitude": 35.8222, "longitude": 128.1178, "elevation_m": 1433, "difficulty": "MODERATE", "aliases": ["가야산국립공원"], "match_dong": ["가야면", "초계면"], "match_districts": ["합천군", "성주군", "칠곡군"]},
  {"id": 22, "name": "내장산", "region_city": "전북특별자치도", "region_district": "정읍시", "latitude": 35.4789, "longitude": 126.8811, "elevation_m": 763, "difficulty": "MODERATE", "aliases": ["내장산국립공원"], "match_dong": ["내장동", "북면"], "match_districts": ["정읍시", "김제시"]},
  {"id": 23, "name": "주왕산", "region_city": "경상북도", "region_district": "청송군", "latitude": 36.3889, "longitude": 129.1667, "elevation_m": 720, "difficulty": "MODERATE", "aliases": ["주왕산국립공원"], "match_dong": ["부동면", "주왕산면"], "match_districts": ["청송군", "영양군"]},
  {"id": 24, "name": "팔공산", "region_city": "대구광역시", "region_district": "동구", "latitude": 35.9917, "longitude": 128.6933, "elevation_m": 1193, "difficulty": "MODERATE", "aliases": ["팔공산국립공원"], "match_dong": ["동촌동", "신암동"], "match_districts": ["동구", "칠곡군", "경산시"]},
  {"id": 25, "name": "무등산", "region_city": "광주광역시", "region_district": "동구", "latitude": 35.1344, "longitude": 126.9889, "elevation_m": 1187, "difficulty": "MODERATE", "aliases": ["무등산국립공원"], "match_dong": ["지산동", "학운동"], "match_districts": ["동구", "남구", "북구"]},
  {"id": 26, "name": "금정산", "region_city": "부산광역시", "region_district": "금정구", "latitude": 35.2794, "longitude": 129.0533, "elevation_m": 801, "difficulty": "MODERATE", "aliases": ["금정산"], "match_dong": ["금성동", "부곡동", "선동"], "match_districts": ["금정구", "기장군"]},
  {"id": 27, "name": "변산", "region_city": "전북특별자치도", "region_district": "부안군", "latitude": 35.7289, "longitude": 126.5333, "elevation_m": 508, "difficulty": "EASY", "aliases": ["변산반도"], "match_dong": ["변산면", "진서면"], "match_districts": ["부안군", "고창군"]},
  {"id": 28, "name": "계룡산", "region_city": "충청남도", "region_district": "공주시", "latitude": 36.3611, "longitude": 127.2244, "elevation_m": 845, "difficulty": "MODERATE", "aliases": ["계룡산국립공원"], "match_dong": ["반포면", "이인면"], "match_districts": ["공주시", "논산시", "금산군"]},
  {"id": 29, "name": "마이산", "region_city": "전북특별자치도", "region_district": "진안군", "latitude": 35.9756, "longitude": 127.4306, "elevation_m": 686, "difficulty": "MODERATE", "aliases": ["마이산도립공원"], "match_dong": ["마령면", "부귀면"], "match_districts": ["진안군", "남원시"]},
  {"id": 30, "name": "북한산(경기)", "region_city": "경기도", "region_district": "고양시", "latitude": 37.6650, "longitude": 126.9900, "elevation_m": 836, "difficulty": "MODERATE", "aliases": [], "match_dong": ["덕양구", "행신동", "화정동"], "match_districts": ["고양시", "파주시", "양주시"]},
  {"id": 31, "name": "용문산", "region_city": "경기도", "region_district": "양평군", "latitude": 37.5433, "longitude": 127.5833, "elevation_m": 1157, "difficulty": "MODERATE", "aliases": [], "match_dong": ["용문면", "양서면"], "match_districts": ["양평군", "여주시"]},
  {"id": 32, "name": "민둥산", "region_city": "경기도", "region_district": "가평군", "latitude": 37.8833, "longitude": 127.5167, "elevation_m": 1031, "difficulty": "MODERATE", "aliases": [], "match_dong": ["청평면", "북면"], "match_districts": ["가평군", "춘천시"]},
  {"id": 33, "name": "천마산", "region_city": "경기도", "region_district": "포천시", "latitude": 37.9167, "longitude": 127.2000, "elevation_m": 810, "difficulty": "MODERATE", "aliases": [], "match_dong": ["관인면", "일동면"], "match_districts": ["포천시", "연천군"]},
  {"id": 34, "name": "운악산", "region_city": "경기도", "region_district": "포천시", "latitude": 37.8833, "longitude": 127.3167, "elevation_m": 936, "difficulty": "HARD", "aliases": [], "match_dong": ["신북면", "영북면"], "match_districts": ["포천시", "가평군"]},
  {"id": 35, "name": "화왕산", "region_city": "경상남도", "region_district": "창녕군", "latitude": 35.5500, "longitude": 128.5167, "elevation_m": 757, "difficulty": "MODERATE", "aliases": ["화왕산국립공원"], "match_dong": ["창녕읍", "대지면"], "match_districts": ["창녕군", "밀양시"]},
  {"id": 36, "name": "두륜산", "region_city": "전라남도", "region_district": "해남군", "latitude": 34.4833, "longitude": 126.6167, "elevation_m": 703, "difficulty": "MODERATE", "aliases": ["두륜산도립공원"], "match_dong": ["삼산면", "화산면"], "match_districts": ["해남군", "완도군"]},
  {"id": 37, "name": "두타산", "region_city": "경상북도", "region_district": "울진군", "latitude": 36.9333, "longitude": 129.4000, "elevation_m": 1353, "difficulty": "HARD", "aliases": [], "match_dong": ["금강송면", "기성면"], "match_districts": ["울진군", "영덕군"]},
  {"id": 38, "name": "두타산(강원)", "region_city": "강원특별자치도", "region_district": "삼척시", "latitude": 37.3500, "longitude": 129.1667, "elevation_m": 1300, "difficulty": "HARD", "aliases": [], "match_dong": ["신기면", "하장면"], "match_districts": ["삼척시", "정선군"]},
  {"id": 39, "name": "민주지산", "region_city": "충청북도", "region_district": "영동군", "latitude": 36.0167, "longitude": 127.7833, "elevation_m": 1242, "difficulty": "MODERATE", "aliases": [], "match_dong": ["양산면", "용산면"], "match_districts": ["영동군", "옥천군"]},
  {"id": 40, "name": "두륜산(전남)", "region_city": "전라남도", "region_district": "장성군", "latitude": 35.3167, "longitude": 126.7833, "elevation_m": 565, "difficulty": "EASY", "aliases": [], "match_dong": ["삼계면", "북이면"], "match_districts": ["장성군", "담양군"]},
  {"id": 41, "name": "모악산", "region_city": "전북특별자치도", "region_district": "완주군", "latitude": 35.8333, "longitude": 127.1167, "elevation_m": 794, "difficulty": "MODERATE", "aliases": [], "match_dong": ["구이면", "운주면"], "match_districts": ["완주군", "전주시"]},
  {"id": 42, "name": "장산", "region_city": "부산광역시", "region_district": "해운대구", "latitude": 35.2333, "longitude": 129.2167, "elevation_m": 801, "difficulty": "MODERATE", "aliases": [], "match_dong": ["재송동", "반여동"], "match_districts": ["해운대구", "기장군"]},
  {"id": 43, "name": "백두대간(대둔산)", "region_city": "충청남도", "region_district": "금산군", "latitude": 36.0833, "longitude": 127.3500, "elevation_m": 878, "difficulty": "MODERATE", "aliases": ["대둔산"], "match_dong": ["추부면", "진산면"], "match_districts": ["금산군", "공주시"]},
  {"id": 44, "name": "두타산(경북)", "region_city": "경상북도", "region_district": "봉화군", "latitude": 36.8500, "longitude": 128.7333, "elevation_m": 1300, "difficulty": "HARD", "aliases": [], "match_dong": ["춘양면", "명호면"], "match_districts": ["봉화군", "영주시"]},
  {"id": 45, "name": "두륜산(제주)", "region_city": "제주특별자치도", "region_district": "서귀포시", "latitude": 33.2833, "longitude": 126.3167, "elevation_m": 598, "difficulty": "MODERATE", "aliases": ["한라산(남쪽)"], "match_dong": ["대정읍", "안덕면"], "match_districts": ["서귀포시"]},
  {"id": 46, "name": "북악산(경기)", "region_city": "경기도", "region_district": "남양주시", "latitude": 37.6167, "longitude": 127.1500, "elevation_m": 836, "difficulty": "MODERATE", "aliases": [], "match_dong": ["화도읍", "진접읍"], "match_districts": ["남양주시", "구리시"]},
  {"id": 47, "name": "용추산", "region_city": "강원특별자치도", "region_district": "춘천시", "latitude": 37.9167, "longitude": 127.7333, "elevation_m": 1058, "difficulty": "MODERATE", "aliases": [], "match_dong": ["동면", "남면"], "match_districts": ["춘천시", "홍천군"]},
  {"id": 48, "name": "민둥산(강원)", "region_city": "강원특별자치도", "region_district": "홍천군", "latitude": 37.6833, "longitude": 127.8833, "elevation_m": 1118, "difficulty": "MODERATE", "aliases": [], "match_dong": ["내면", "서면"], "match_districts": ["홍천군", "춘천시"]},
  {"id": 49, "name": "두타산(충북)", "region_city": "충청북도", "region_district": "단양군", "latitude": 36.9833, "longitude": 128.3500, "elevation_m": 1100, "difficulty": "MODERATE", "aliases": [], "match_dong": ["가곡면", "어상천면"], "match_districts": ["단양군", "영월군"]},
  {"id": 50, "name": "두륜산(경남)", "region_city": "경상남도", "region_district": "거창군", "latitude": 35.6833, "longitude": 127.9167, "elevation_m": 720, "difficulty": "MODERATE", "aliases": [], "match_dong": ["위천면", "마리면"], "match_districts": ["거창군", "함양군"]}
]
